City_ID,City,Lat,Lng,Max Temp,Humidity,Cloudiness,Wind Speed,Country,Date
0,grytviken,-54.2811,-36.5092,6.71,91,75,4.35,GS,1711528866
1,adamstown,-25.066,-130.1015,24.83,60,41,5.79,PN,1711550833
2,la'ie,21.6477,-157.9253,22.98,84,59,2.68,US,1711556908
3,buala,-8.145,159.5921,26.74,83,90,0.76,SB,1711567498
4,auki,-8.7676,160.7034,25.59,88,98,0.65,SB,1711567239
5,lospalos,-8.5186,127.0025,22.8,93,21,0.34,TL,1711575323
6,alice springs,-23.7,133.8833,16.75,100,49,0.0,AU,1711573865
7,rongelap,11.1635,166.8941,27.07,73,30,7.35,MH,1711565500
8,sitka,57.0531,-135.33,4.94,81,20,1.54,US,1711550532
9,alofi,-19.0595,-169.9187,26.94,89,54,2.06,NU,1711560315
10,ust-tsilma,65.441,52.1498,-17.44,100,95,1.34,RU,1711505085
11,albany,42.6001,-73.9662,8.86,77,98,0.45,US,1711536357
12,puerto natales,-51.7236,-72.4875,13.25,44,75,5.14,CL,1711537447
13,aral,40.5156,81.2636,15.97,17,22,3.96,CN,1711585498
14,tazovsky,67.4667,78.7,-27.64,100,16,0.42,RU,1711498545
15,nemuro,43.3236,145.575,-1.63,81,4,4.07,JP,1711570005
16,port-aux-francais,-49.35,70.2167,6.54,92,97,13.66,TF,1711503108
17,atafu village,-8.5421,-172.5159,28.69,74,100,2.82,TK,1711647204
18,carutapera,-1.195,-46.02,28.33,80,64,3.53,BR,1711530366
19,blackmans bay,-43.0167,147.3167,7.51,83,32,0.89,AU,1711570941
20,tapa,59.2606,25.9586,5.35,77,99,3.01,EE,1711511781
21,stalpeni,45.05,24.9667,7.09,91,94,2.87,RO,1711512576
22,inarajan village,13.2736,144.7484,27.08,94,38,3.49,GU,1711570783
23,edinburgh of the seven seas,-37.0676,-12.3116,19.33,94,100,10.71,SH,1711522718
24,waitangi,-43.9535,-176.5597,10.46,82,64,6.81,NZ,1711648754
25,san patricio,28.017,-97.5169,22.71,45,92,6.32,US,1711542315
26,batesville,35.7698,-91.641,12.19,50,1,0.89,US,1711540756
27,kisesa,-3.0833,34.15,20.8,77,96,2.54,TZ,1711511151
28,hotan,37.0997,79.9269,14.66,20,85,3.3,CN,1711585904
29,laguna,38.421,-121.4238,14.06,73,100,3.6,US,1711547837
30,stanley,54.868,-1.6985,8.4,74,20,6.17,GB,1711518623
31,beloyarskiy,63.7119,66.6722,-12.22,96,100,2.24,RU,1711501746
32,glace bay,46.1969,-59.957,3.83,97,100,1.79,CA,1711532897
33,pathein,16.7833,94.7333,23.11,84,0,3.06,MM,1711582730
34,morehead city,34.7229,-76.726,18.02,81,100,2.68,US,1711537202
35,east london,-33.0153,27.9116,21.52,76,100,2.68,ZA,1711513001
36,dampit,-8.2116,112.7493,22.13,97,86,0.74,ID,1711578740
37,olonkinbyen,70.9221,-8.7187,-3.65,64,32,2.21,SJ,1711519048
38,bikenibeu village,1.3673,173.1241,27.98,83,75,3.6,KI,1711564133
39,longyearbyen,78.2186,15.6401,-5.09,80,75,1.54,SJ,1711511547
40,wanning,18.8003,110.3967,23.0,92,12,1.29,CN,1711578942
41,lompoc,34.6391,-120.4579,17.61,65,0,1.54,US,1711547689
42,bel ombre,-4.6167,55.4167,29.3,75,52,4.32,SC,1711506065
43,hawaiian paradise park,19.5933,-154.9731,23.28,94,20,0.45,US,1711556232
44,nantucket,41.2835,-70.0995,11.06,89,100,4.12,US,1711535464
45,port lincoln,-34.7333,135.8667,15.7,81,1,6.38,AU,1711573548
46,ta`u,-14.2336,-169.5144,28.7,73,100,4.18,AS,1711560158
47,kabinda,-6.1333,24.4833,22.05,90,81,0.78,CD,1711513505
48,timimoun,29.2639,0.231,21.47,15,0,2.59,DZ,1711518853
49,timbuktu,16.7735,-3.0074,33.65,14,100,3.56,ML,1711519822
50,korla,41.7597,86.1469,13.32,33,5,1.82,CN,1711584294
51,hermanus,-34.4187,19.2345,17.11,78,99,6.78,ZA,1711515104
52,rutherford,35.8501,-86.4,15.05,54,0,3.6,US,1711539498
53,hamilton,39.1834,-84.5333,7.69,73,100,5.14,US,1711538975
54,bethel,41.3712,-73.414,14.19,65,100,2.24,US,1711536256
55,prince rupert,54.3161,-130.3201,7.67,67,100,1.91,CA,1711549462
56,nuuk,64.1835,-51.7216,-5.66,100,100,5.14,GL,1711530054
57,utrik,11.2278,169.8474,26.49,79,86,8.46,MH,1711564791
58,iqaluit,63.7506,-68.5145,-15.17,65,2,2.24,CA,1711534108
59,isafjordur,66.0755,-23.124,0.02,59,75,2.57,IS,1711523047
60,anadyr,64.75,177.4833,-17.22,84,75,4.0,RU,1711561319
61,bilibino,68.0546,166.4372,-28.54,100,100,1.84,RU,1711563634
62,port mathurin,-19.6833,63.4167,25.48,64,76,7.81,MU,1711504313
63,vallenar,-28.5708,-70.7581,29.09,38,0,4.23,CL,1711536632
64,chernyshevskiy,63.0128,112.4714,-31.31,100,94,1.2,RU,1711577025
65,ushuaia,-54.8,-68.3,9.81,50,75,1.54,AR,1711536520
66,cidreira,-30.1811,-50.2056,24.23,71,2,6.26,BR,1711531720
67,kodiak,57.79,-152.4072,-1.27,69,100,6.17,US,1711554584
68,gadzhiyevo,69.2551,33.3362,-12.32,95,53,3.43,RU,1711509205
69,tiksi,71.6872,128.8694,-28.17,94,98,2.59,RU,1711572122
70,kerikeri,-35.2268,173.9474,12.17,92,54,1.84,NZ,1711564412
71,mount isa,-20.7333,139.5,22.87,83,86,2.57,AU,1711572478
72,bafata,12.1667,-14.75,40.5,11,6,2.32,GW,1711522700
73,cabo san lucas,22.8909,-109.9124,27.01,53,0,2.06,MX,1711545373
74,bredasdorp,-34.5322,20.0403,18.36,73,100,5.78,ZA,1711514912
75,berriane,32.8265,3.7669,18.91,24,1,4.67,DZ,1711517940
76,college,64.8569,-147.8028,2.34,72,75,1.54,US,1711552999
77,saipan,15.1355,145.701,25.39,1,20,2.57,MP,1711570528
78,hithadhoo,-0.6,73.0833,27.92,75,86,1.66,MV,1711501781
79,wailua homesteads,22.0669,-159.378,22.24,88,75,8.75,US,1711557250
80,mahibadhoo,3.7833,72.9667,29.01,72,34,4.71,MV,1711501759
81,lihue,21.9789,-159.3672,22.58,89,75,8.75,US,1711557249
82,lerwick,60.1545,-1.1494,6.0,95,98,13.12,GB,1711518222
83,colonia menno,-22.3667,-59.8167,37.28,27,15,3.38,PY,1711533926
84,qaqortoq,60.7167,-46.0333,-2.59,87,22,1.49,GL,1711528937
85,vorgashor,67.5833,63.95,-24.5,100,37,1.77,RU,1711502063
86,papatowai,-46.5619,169.4708,6.48,92,100,7.26,NZ,1711565691
87,santa cruz del sur,20.7147,-77.9956,29.57,52,0,5.82,CU,1711537752
88,klyuchi,52.2667,79.1667,3.9,85,100,3.43,RU,1711585613
89,yellowknife,62.456,-114.3525,-8.02,48,18,4.02,CA,1711545180
90,ust-nera,64.5667,143.2,-12.17,97,100,1.08,RU,1711569542
91,tangalle,6.024,80.7911,26.17,86,98,3.63,LK,1711499855
92,kegeyli shahar,42.7767,59.6078,9.05,65,100,7.1,UZ,1711504334
93,glubokoye,50.1456,82.3114,-0.62,87,100,1.82,KZ,1711498676
94,berdigestyakh,62.0989,126.6992,-20.06,91,100,2.33,RU,1711573687
95,ghat,24.9647,10.1728,30.19,8,89,8.29,LY,1711516540
96,iskateley,67.6803,53.1512,-14.43,95,29,3.13,RU,1711504637
97,udachny,66.4167,112.4,-33.28,99,38,1.93,RU,1711576742
98,greymouth,-42.4667,171.2,11.9,74,100,7.66,NZ,1711565195
99,port saint john's,-31.6229,29.5448,21.62,94,100,3.76,ZA,1711512590
100,georgetown,5.4112,100.3354,29.97,79,20,1.54,MY,1711581545
101,avarua,-21.2078,-159.775,27.03,94,20,1.03,CK,1711557907
102,salalah,17.0151,54.0924,27.05,54,20,8.75,OM,1711506122
103,touros,-5.1989,-35.4608,27.6,79,100,2.42,BR,1711527879
104,aykhal,66.0,111.5,-31.4,100,15,2.59,RU,1711576998
105,farafangana,-22.8167,47.8333,23.29,77,24,3.11,MG,1711508090
106,moyale,3.5167,39.0584,25.01,50,46,2.57,KE,1711509897
107,saint-pierre,-21.3393,55.4781,23.82,78,100,3.09,RE,1711506237
108,san sebastian de la gomera,28.0916,-17.1133,21.2,56,40,5.66,ES,1711523032
109,kamiiso,41.8167,140.65,0.65,71,1,1.44,JP,1711571228
110,kodinsk,58.6881,99.1844,-16.42,100,95,1.22,RU,1711580499
111,nadi,-17.8,177.4167,24.0,94,75,2.06,FJ,1711563339
112,mount pearl,47.5166,-52.7813,3.51,53,86,1.79,CA,1711531137
113,yanykurgan,43.915,67.2481,15.64,38,41,2.97,KZ,1711502473
114,tsiombe,-25.3,45.4833,23.12,81,25,7.42,MG,1711508684
115,broome,42.2506,-75.833,10.79,81,100,3.6,US,1711536813
116,phan thiet,10.9333,108.1,25.03,88,4,3.61,VN,1711579608
117,ribeira grande,38.5167,-28.7,15.22,63,75,14.4,PT,1711525605
118,whitehorse,60.7161,-135.0538,1.17,70,98,1.79,CA,1711550255
119,keflavik,64.0049,-22.5624,1.95,64,20,8.23,IS,1711523087
120,smithers,54.7804,-127.1743,5.01,70,100,1.37,CA,1711548688
121,nouadhibou,20.931,-17.0347,21.99,53,100,9.77,MR,1711523127
122,gilgit,35.9221,74.3087,12.73,78,100,0.88,PK,1711500965
123,ugoofaaru,5.6667,73.0,28.45,76,70,2.4,MV,1711501729
124,walvis bay,-22.9575,14.5053,16.16,72,13,6.48,,1711516092
125,codrington,-38.2667,141.9667,12.47,90,81,1.77,AU,1711572141
126,arica,-18.475,-70.3042,28.75,69,7,3.59,CL,1711536397
127,pisco,-13.7,-76.2167,25.03,73,0,5.14,PE,1711537759
128,kolonia,50.9333,6.95,9.98,82,20,3.09,DE,1711516707
129,kokpekty,48.75,82.4,-3.52,87,98,1.08,KZ,1711498701
130,miles city,46.4083,-105.8406,1.54,69,0,0.0,US,1711543888
131,west island,-12.1568,96.8225,27.99,78,40,4.12,CC,1711582612
132,kigonsera,-10.8,35.05,17.63,98,97,1.64,TZ,1711511021
133,singkil,-7.9855,111.4161,24.81,94,98,1.28,ID,1711579057
134,namibe,-15.1961,12.1522,26.18,80,76,4.0,AO,1711516566
135,ilulissat,69.2167,-51.1,-5.99,86,75,4.12,GL,1711529410
136,chonchi,-42.6128,-73.8092,17.56,48,29,1.18,CL,1711537578
137,ataq,14.5377,46.8319,23.2,66,25,3.63,YE,1711507897
138,kapuskasing,49.4169,-82.4331,2.0,70,90,6.33,CA,1711538180
139,calvinia,-31.4707,19.776,23.48,46,0,4.04,ZA,1711514934
140,fale old settlement,-9.3852,-171.2468,29.1,75,100,3.83,TK,1711646911
141,lianshan,40.7643,120.8533,10.52,29,100,5.46,CN,1711576001
142,rio gallegos,-51.6226,-69.2181,13.03,38,0,4.63,AR,1711536659
143,timmins,48.4669,-81.3331,3.13,74,97,5.91,CA,1711537949
144,city of balikpapan,-1.242,116.8942,24.97,100,100,2.06,ID,1711577658
145,geraldton,-28.7667,114.6,18.23,94,40,2.57,AU,1711578565
146,ceeldheer,3.8488,47.1806,28.26,79,16,9.07,SO,1711507945
147,nar'yan-mar,67.6713,53.087,-14.38,95,29,3.13,RU,1711504653
148,trincomalee,8.5711,81.2335,28.07,80,13,4.57,LK,1711499719
149,goundam,16.4145,-3.6708,33.97,14,100,4.3,ML,1711519986
150,caribou,46.8606,-68.012,5.92,87,100,5.66,US,1711534808
151,petropavlovsk-kamchatsky,53.0452,158.6483,-8.67,77,0,4.0,RU,1711566536
152,uturoa,-16.7333,-151.4333,28.79,67,70,8.39,PF,1711555849
153,westport,41.1415,-73.3579,14.09,64,40,3.09,US,1711536249
154,kurumkan,54.3,110.3,-12.15,70,10,4.02,RU,1711578064
155,kruisfontein,-34.0033,24.7314,19.94,88,100,2.98,ZA,1711513779
156,port elizabeth,-33.918,25.5701,21.17,90,75,1.03,ZA,1711513576
157,punta arenas,-53.15,-70.9167,11.06,58,100,6.69,CL,1711537105
158,fisterra,42.9049,-9.2629,8.75,69,99,19.31,ES,1711520839
159,san borja,-14.8167,-66.85,34.19,34,47,2.3,BO,1711535524
160,vrangel',42.7297,133.0839,2.55,81,53,3.97,RU,1711573016
161,veinticinco de mayo,-35.4323,-60.1727,26.43,56,99,3.1,AR,1711534187
162,ialibu,-6.2821,143.9935,12.81,97,100,1.37,PG,1711571218
163,vernon,50.2581,-119.2691,7.56,58,100,0.45,CA,1711546977
164,galveston,29.3669,-94.9669,18.91,64,75,8.75,US,1711541679
165,jamestown,42.097,-79.2353,6.68,85,100,4.12,US,1711537633
166,happy valley-goose bay,53.3168,-60.3315,-0.83,59,100,3.09,CA,1711532737
167,la passe,45.5549,-0.8967,12.13,66,86,10.25,FR,1711518761
168,shevchenko,48.5,35.0,12.26,48,83,2.34,UA,1711510068
169,mejit,10.2753,170.8646,26.78,79,84,8.95,MH,1711564560
170,grand falls-windsor,48.9332,-55.6649,1.77,73,100,2.6,CA,1711531782
171,fort st. john,56.2499,-120.8529,1.09,67,99,3.63,CA,1711547104
172,talnakh,69.4865,88.3972,-23.39,94,99,2.2,RU,1711582130
173,"laikit, laikit ii (dimembe)",1.4792,124.9735,22.47,100,40,1.03,ID,1711575685
174,burela de cabo,43.65,-7.4,8.43,83,100,11.95,ES,1711520373
175,toliara,-23.35,43.6667,25.98,79,0,1.35,MG,1711509096
176,acarau,-2.8856,-40.12,24.97,89,100,7.82,BR,1711528970
177,rabaul,-4.1967,152.1721,26.78,82,78,1.8,PG,1711569230
178,hadibu,12.65,54.0333,27.14,76,87,4.81,YE,1711506194
179,nicoya,10.1483,-85.452,34.01,48,47,0.91,CR,1711539688
180,bardai,11.65,7.2333,31.95,8,100,3.49,NG,1711517433
181,paraty,-23.2178,-44.7131,24.26,93,100,0.99,BR,1711530311
182,nova olimpia,-14.7972,-57.2881,25.21,88,100,1.11,BR,1711533229
183,badger,64.8,-147.5333,2.3,75,75,1.54,US,1711552940
184,praia da vitoria,38.7333,-27.0667,15.14,77,75,10.43,PT,1711525209
185,sepuka,-4.75,34.5333,18.3,91,85,2.52,TZ,1711511078
186,san pedro pochutla,15.7333,-96.4667,27.84,37,33,3.94,MX,1711542255
187,belyy yar,53.6039,91.3903,-1.06,74,100,0.0,RU,1711582626
188,sur,22.5667,59.5289,24.82,62,100,2.63,OM,1711504740
189,carnarvon,-24.8667,113.6333,25.75,60,0,7.95,AU,1711578742
190,enewetak,11.3474,162.3373,26.75,71,100,7.27,MH,1711566591
191,thompson,55.7435,-97.8558,-8.72,77,100,4.97,CA,1711541619
192,puerto ayora,-0.7393,-90.3518,30.98,89,100,2.68,EC,1711540998
193,maintirano,-18.0667,44.0167,27.59,72,96,3.04,MG,1711508951
194,tura,25.5198,90.2201,19.57,74,41,2.32,IN,1711497334
195,aldinga beach,-35.2793,138.4604,16.36,85,6,6.23,AU,1711572934
196,invercargill,-46.4,168.35,7.97,84,100,8.21,NZ,1711565957
197,lebu,-37.6167,-73.65,16.95,77,12,6.44,CL,1711537457
198,aasiaat,68.7098,-52.8699,-8.62,81,100,5.13,GL,1711529894
199,kulhudhuffushi,6.6221,73.07,28.09,75,65,0.97,MV,1711501701
200,lensk,60.7253,114.9278,-25.08,100,93,2.03,RU,1711576601
201,taunggyi,20.7833,97.0333,17.14,41,2,1.47,MM,1711582116
202,brookings,44.3114,-96.7984,-5.0,75,0,5.66,US,1711541783
203,susuman,62.7833,148.1667,-20.31,100,99,0.12,RU,1711568496
204,masterton,-40.9597,175.6575,13.82,76,73,4.68,NZ,1711564097
205,acoyapa,11.9703,-85.1711,35.4,39,3,5.47,NI,1711539596
206,pokhara,28.2333,83.9833,20.24,55,80,1.55,NP,1711498786
207,mechanicsville,37.6088,-77.3733,9.07,94,100,4.63,US,1711537295
208,ambodifotatra,-16.9833,49.85,25.15,95,100,5.32,MG,1711507538
209,las palmas,28.4204,-14.0131,17.44,55,20,3.09,ES,1711522283
210,rouyn-noranda,48.2398,-79.0288,5.05,75,75,10.29,CA,1711537404
211,weno,7.4515,151.8468,27.98,80,100,7.94,FM,1711569160
212,constantia,44.1833,28.65,8.38,80,50,6.29,RO,1711511717
213,ciudad melchor muzquiz,27.8833,-101.5167,16.88,18,2,3.92,MX,1711543276
214,zheleznogorsk,52.331,35.3711,3.04,82,38,2.18,RU,1711509845
215,akureyri,65.6835,-18.0878,-3.04,68,75,4.12,IS,1711521877
216,tateyama,34.9833,139.8667,8.94,61,95,2.77,JP,1711571581
217,saint-philippe,-21.3585,55.7679,23.77,94,100,3.76,RE,1711506168
218,scarborough,54.2797,-0.4044,7.76,78,49,1.79,GB,1711518338
219,libenge,3.65,18.6333,27.72,56,79,1.28,CD,1711514796
220,archangelos,36.2149,28.1149,17.39,92,0,4.01,GR,1711512034
221,ercis,39.0287,43.3586,-5.83,80,43,2.08,TR,1711508319
222,key west,24.5557,-81.7826,28.0,76,0,6.17,US,1711538600
223,rio grande,-32.035,-52.0986,25.06,61,10,4.45,BR,1711532199
224,nova sintra,14.8667,-24.7167,18.96,76,25,11.53,CV,1711525055
225,emerald,-23.5333,148.1667,23.52,93,98,5.25,AU,1711570434
226,sesheke,-17.4759,24.2968,27.14,40,93,1.91,ZM,1711513678
227,mhamid,29.82,-5.72,23.39,10,0,5.79,MA,1711520270
228,buckeye,33.3703,-112.5838,21.49,39,0,5.14,US,1711545827
229,xinyuan,37.3,99.0,-3.75,31,43,3.31,CN,1711581326
230,kone,-21.0595,164.8658,23.27,91,54,2.28,NC,1711566393
231,panjakent,39.4952,67.6093,15.17,63,85,1.8,TJ,1711502494
232,carroll,39.5501,-77.0164,9.02,90,100,3.58,US,1711537165
233,zouerate,22.7187,-12.4521,24.55,20,1,4.68,MR,1711522001
234,pangody,65.85,74.4859,-25.81,100,42,2.04,RU,1711499704
235,wakkanai,45.4094,141.6739,1.16,82,2,4.02,JP,1711570879
236,xai-xai,-25.0519,33.6442,21.67,84,8,1.76,MZ,1711511523
237,tolanaro,-25.0319,46.9987,22.06,88,1,4.51,MG,1711508317
238,tual,-5.6667,132.75,28.74,75,100,2.92,ID,1711573909
239,dek'emhare,15.07,39.0475,17.42,70,4,2.85,ER,1711509757
240,oum hadjer,13.2954,19.6966,34.17,10,59,2.06,TD,1711514422
241,chinde,26.8418,88.0763,15.27,75,100,1.59,NP,1711497827
242,canto do buriti,-8.11,-42.9444,35.62,37,66,1.15,BR,1711529709
243,barra de santo antonio,-9.4047,-35.5072,28.6,68,94,4.58,BR,1711527939
244,fort bragg,35.139,-79.006,20.75,86,100,3.09,US,1711537740
245,bonanza,14.0289,-84.591,34.84,44,82,1.28,NI,1711539429
246,atbara,17.7022,33.9864,28.5,6,2,4.64,SD,1711510936
247,argo,37.6333,22.7333,18.21,68,71,1.69,GR,1711513294
248,bathsheba,13.2167,-59.5167,29.34,65,40,5.66,BB,1711533426
249,whitecourt,54.1502,-115.6855,6.04,56,13,4.07,CA,1711545963
250,mount gambier,-37.8333,140.7667,10.51,98,14,1.14,AU,1711572422
251,fuglafjordur,62.244,-6.814,3.26,74,95,17.57,FO,1711519445
252,aioun,16.6614,-9.6149,33.71,15,100,3.76,MR,1711521408
253,gorontalo,0.5412,123.0595,24.51,96,99,1.44,ID,1711576156
254,margaret river,-33.95,115.0667,14.42,87,0,1.18,AU,1711578531
255,lamu,-2.2717,40.902,27.84,76,54,2.72,KE,1711509521
256,malango,-2.9627,119.9001,22.19,97,100,0.79,ID,1711576959
257,tooele,40.5308,-112.2983,8.28,36,33,1.79,US,1711545599
258,bermejo,-32.8833,-68.8,31.4,35,6,2.6,AR,1711536222
259,reggane,26.7158,0.1714,24.02,8,0,4.08,DZ,1711518910
260,dabakala,8.3667,-4.4333,36.74,29,55,2.69,CI,1711520274
261,west lafayette,40.4259,-86.9081,4.21,63,100,3.09,US,1711539515
262,jishui,33.7333,115.4,10.07,96,97,3.06,CN,1711577474
263,loukhi,66.0764,33.0381,-10.45,94,53,1.44,RU,1711509604
264,alta,69.9689,23.2717,-5.41,69,0,5.14,NO,1711511524
265,kahna nau,31.3692,74.3653,21.02,78,75,10.29,PK,1711501038
266,mamuju,-2.6748,118.8885,25.61,92,100,0.86,ID,1711577198
267,jizzax,40.1158,67.8422,17.23,61,50,1.37,UZ,1711502424
268,tolga,34.7222,5.3785,19.92,30,22,8.9,DZ,1711517516
269,nema,57.5067,50.5011,-2.99,95,100,7.98,RU,1711505995
270,callao,-12.0667,-77.15,26.16,65,0,7.2,PE,1711537964
271,harburg,53.4667,9.9833,14.1,66,0,1.03,DE,1711515883
272,lata,40.1629,-8.3327,12.18,86,85,7.89,PT,1711520684
273,ancud,-41.8697,-73.8203,16.73,58,33,1.03,CL,1711537568
274,kingston,17.997,-76.7936,32.87,55,20,5.66,JM,1711537504
275,vadamadurai,10.4667,78.0833,26.31,74,26,2.52,IN,1711500452
276,coquimbo,-29.9533,-71.3436,20.27,73,19,2.56,CL,1711536792
277,sao vicente,-23.9631,-46.3919,24.97,78,100,3.13,BR,1711530724
278,horta,38.5333,-28.6333,14.8,71,75,14.4,PT,1711525589
279,saudarkrokur,65.7461,-19.6394,-2.83,76,8,2.02,IS,1711522243
280,pimenta bueno,-11.6725,-61.1936,27.35,91,84,2.56,BR,1711534130
281,cill airne,52.05,-9.5167,8.03,76,40,3.6,IE,1711520612
282,tyrnyauz,43.3828,42.9183,-1.03,83,83,3.02,RU,1711508319
283,ponta delgada,37.7333,-25.6667,15.4,72,75,14.92,PT,1711524896
284,speedway,39.8023,-86.2672,6.7,62,100,4.63,US,1711539376
285,new norfolk,-42.7826,147.0587,8.17,98,34,1.24,AU,1711570999
286,wladyslawowo,54.7909,18.4009,13.6,73,63,6.83,PL,1711513811
287,as suwayq,23.8494,57.4386,25.73,43,99,2.18,OM,1711505222
288,along,28.1667,94.7667,16.0,85,21,0.79,IN,1711496201
289,panaba,21.2833,-88.2667,30.41,65,50,5.5,MX,1711540207
290,monticello,45.3055,-93.7941,-2.79,68,0,5.66,US,1711541034
291,usogorsk,63.4106,48.6872,-13.52,99,100,1.27,RU,1711506074
292,boumagueur,35.5052,5.5525,14.73,42,67,6.52,DZ,1711517459
293,nam som,17.7704,102.1895,28.99,58,99,0.9,TH,1711580926
294,kapoeta,4.7717,33.5903,28.71,49,79,4.06,SS,1711511195
295,saint-francois,46.4154,3.9054,11.69,50,0,4.12,FR,1711517585
296,mantua,45.1667,10.7833,11.7,79,99,2.24,IT,1711515973
297,tatarsk,55.219,75.9828,0.27,99,100,2.5,RU,1711586242
298,aleg,17.0481,-13.9209,34.96,12,53,4.43,MR,1711522436
299,trinity beach,-16.7888,145.6968,26.94,94,40,3.09,AU,1711570940
300,vila velha,-20.3297,-40.2925,28.97,80,40,5.14,BR,1711529215
301,haiku-pauwela,20.9219,-156.3051,23.36,81,40,7.72,US,1711556531
302,sinabang,2.4803,96.3801,27.22,81,98,3.08,ID,1711582533
303,gobabis,-22.45,18.9667,18.04,75,94,5.72,,1711515015
304,kroya,-7.6331,109.2461,24.1,94,99,1.13,ID,1711579574
305,hammerfest,70.6634,23.6821,-3.75,68,0,4.12,NO,1711511334
306,obidos,-1.9175,-55.5181,32.39,56,18,3.05,BR,1711532654
307,porto novo,6.4965,2.6036,29.69,73,72,5.04,BJ,1711518608
308,yen bai,21.7,104.8667,22.99,91,100,0.18,VN,1711580222
309,minas de marcona,-15.2119,-75.1103,23.5,59,2,4.38,PE,1711537511
310,dakhla,23.6848,-15.958,19.01,59,100,7.72,EH,1711522827
311,al hazm,16.1641,44.7769,24.78,48,37,3.07,YE,1711508368
312,geneina,13.45,22.45,31.23,10,37,3.03,SD,1711513760
313,lyantor,61.6195,72.1555,-9.65,90,100,6.75,RU,1711500577
314,bodo,67.28,14.405,1.02,64,40,4.63,NO,1711513950
315,baruun-urt,46.6806,113.2792,-11.19,56,89,8.75,MN,1711577644
316,swift current,50.2834,-107.8014,-0.57,56,83,5.43,CA,1711544228
317,mirnyy,62.5353,113.9611,-27.11,100,99,1.19,RU,1711576705
318,genhe,50.7833,121.5167,-0.89,96,100,5.41,CN,1711575525
319,st ives,50.2086,-5.4875,6.18,81,40,11.83,GB,1711519713
320,quellon,-43.1167,-73.6167,15.52,64,19,2.61,CL,1711537541
321,sirte,31.2089,16.5887,18.97,65,21,10.58,LY,1711514895
322,keetmanshoop,-26.5833,18.1333,24.51,57,71,4.63,,1711515266
323,namsos,64.4662,11.4957,5.03,65,0,5.66,NO,1711514897
324,leava,-14.3,-178.1667,29.14,70,100,1.75,WF,1711648640
325,cooma,-36.2333,149.1333,11.57,84,72,0.76,AU,1711570386
326,muynoq,43.7683,59.0214,10.3,67,100,5.53,UZ,1711504449
327,papao,-17.75,-149.55,28.82,81,98,8.67,PF,1711555409
328,scottburgh,-30.2867,30.7532,22.47,92,51,4.06,ZA,1711512283
329,tukrah,32.5341,20.5791,22.47,36,48,1.87,LY,1711513914
330,karatau,43.1667,70.4667,13.26,88,25,3.12,KZ,1711501721
331,villa gesell,-37.2639,-56.973,26.7,55,75,2.02,AR,1711533446
332,douentza,14.9951,-2.9517,37.0,15,88,3.42,ML,1711519833
333,andergrove,-21.0833,149.1833,23.53,96,92,1.55,AU,1711570158
334,ghanzi,-21.5667,21.7833,23.62,56,90,3.74,BW,1711514329
335,kapa'a,22.0752,-159.319,22.99,88,75,8.75,US,1711557236
336,shalqar,47.8333,59.6,9.0,65,100,5.92,KZ,1711504194
337,weyburn,49.6668,-103.8511,-5.88,33,11,2.06,CA,1711543304
338,bria,6.5423,21.9863,28.86,45,54,2.26,CF,1711513957
339,vadso,70.0744,29.7487,-6.91,73,0,2.57,NO,1711509961
340,rio preto da eva,-2.6994,-59.6997,33.23,58,80,1.05,BR,1711533667
341,al buraymi,24.2509,55.7931,18.68,55,0,1.54,OM,1711505610
342,flin flon,54.7682,-101.865,-7.74,64,11,3.07,CA,1711542625
343,chachersk,52.9164,30.9179,5.95,69,66,4.95,BY,1711510890
344,ketchikan,55.3422,-131.6461,8.26,61,0,6.17,US,1711549733
345,urengoy,65.9667,78.3667,-25.97,100,32,1.85,RU,1711498765
346,novyy urgal,51.0736,132.5642,-9.24,96,92,1.43,RU,1711572866
347,san antonio de pale,-1.4014,5.6325,29.56,71,98,2.29,GQ,1711517975
348,buzdyak,54.5833,54.55,0.45,98,100,3.99,RU,1711505160
349,summerland,49.5998,-119.6691,7.27,61,100,6.17,CA,1711547097
350,opuwo,-18.0607,13.84,19.22,90,99,4.88,,1711516194
351,richards bay,-28.783,32.0377,21.48,86,2,1.39,ZA,1711511955
352,port alberni,49.2413,-124.8028,7.91,95,100,1.34,CA,1711548340
353,port macquarie,-31.4333,152.9167,17.16,99,8,0.74,AU,1711569404
354,hacilar,38.6463,35.4494,7.83,76,75,1.03,TR,1711510223
355,san roque,36.2107,-5.3842,16.46,72,75,11.32,ES,1711520066
356,saldanha,-33.0117,17.9442,17.01,86,14,7.66,ZA,1711515395
357,yangquan,37.8575,113.5633,9.05,22,38,4.45,CN,1711577821
358,puerto baquerizo moreno,-0.9,-89.6,30.55,70,40,4.63,EC,1711540820
359,bang saphan,11.2126,99.5117,24.59,93,7,0.95,TH,1711581664
360,cannonvale,-20.2833,148.7,26.66,87,79,4.24,AU,1711570264
361,markaz-e hukumat-e darweshan,31.1323,64.1934,24.33,28,100,3.71,AF,1711503482
362,flying fish cove,-10.4217,105.6791,25.82,83,40,4.12,CX,1711580465
363,fauske,67.2588,15.3918,1.02,86,100,2.05,NO,1711513716
364,dazhou,31.2159,107.5009,15.01,79,92,1.55,CN,1711579420
365,mili,6.0815,171.735,27.77,79,99,7.63,MH,1711564406
366,djougou,9.7085,1.666,36.1,29,96,2.52,BJ,1711518794
367,tutoia,-2.7619,-42.2744,28.05,78,100,5.77,BR,1711529486
368,san carlos de bariloche,-41.1456,-71.3082,19.92,36,29,3.73,AR,1711536952
369,kurye,35.2094,127.4644,9.16,81,100,1.1,KR,1711574549
370,port blair,11.6667,92.75,27.02,83,85,1.03,IN,1711496918
371,schlusser,40.2417,-77.1769,9.1,86,100,2.31,US,1711537186
372,kailua-kona,19.6406,-155.9956,27.0,82,40,2.57,US,1711556476
373,elverum,60.8819,11.5623,1.32,100,100,0.86,NO,1711515134
374,northam,51.0333,-4.2167,6.25,82,64,6.49,GB,1711519379
375,mbekenyera,-10.0,38.9833,22.96,96,100,1.32,TZ,1711510068
376,goondiwindi,-28.55,150.3167,20.08,88,100,3.03,AU,1711569987
377,akonolinga,3.7667,12.25,27.65,38,34,1.15,CM,1711516327
378,noshiro,40.2039,140.0242,1.38,71,2,2.57,JP,1711571420
379,eyl,7.9803,49.8164,28.09,77,12,8.45,SO,1711507263
380,dourbali,11.8091,15.8632,35.65,10,96,4.08,TD,1711515361
381,luganville,-15.5333,167.1667,26.19,90,98,0.5,VU,1711565771
382,zyryanskoye,56.8306,86.6258,-0.68,99,100,1.61,RU,1711583611
383,patong,7.8961,98.2966,27.08,77,97,1.65,TH,1711582001
384,huarmey,-10.0681,-78.1522,26.15,71,63,4.85,PE,1711538181
385,bokani,9.4333,5.2,36.42,24,100,2.42,NG,1711517949
386,sydney,-33.8679,151.2073,20.95,84,40,5.66,AU,1711569851
387,brumunddal,60.881,10.9395,1.8,99,100,0.74,NO,1711515283
388,west bay,19.3667,-81.4167,30.04,66,20,5.14,KY,1711538592
389,sisimiut,66.9395,-53.6735,-7.55,87,97,4.17,GL,1711530276
390,ulanhot,46.0833,122.0833,4.54,31,77,6.79,CN,1711575553
391,vilyuchinsk,52.9306,158.4028,-7.85,79,66,3.67,RU,1711566600
392,dudinka,69.4058,86.1778,-26.29,99,90,2.24,RU,1711582671
393,sandnessjoen,66.0217,12.6316,2.06,64,75,1.54,NO,1711514494
394,ola,59.5833,151.2833,-11.92,96,98,2.32,RU,1711567968
395,yuzhno-kurilsk,44.0306,145.8556,-3.12,89,13,2.99,RU,1711569918
396,miri,4.4148,114.0089,25.83,89,100,1.89,MY,1711578278
397,altai,46.3722,96.2583,-2.43,39,86,2.21,MN,1711581734
398,shache,38.4167,77.2406,15.15,24,58,4.51,CN,1711586516
399,country club estates,31.2127,-81.4643,23.03,85,0,6.69,US,1711538407
400,gubkinskiy,64.434,76.5026,-20.1,100,86,4.2,RU,1711499338
401,al kharijah,25.4514,30.5464,22.99,12,0,0.71,EG,1711511646
402,crane,31.3974,-102.3501,17.83,21,12,7.12,US,1711543412
403,mbaiki,3.8678,17.9892,26.05,61,45,1.74,CF,1711514948
404,bereeda,11.8704,51.0579,27.39,79,59,5.37,SO,1711506917
405,zalingei,12.9096,23.4741,30.63,10,94,2.46,SD,1711513521
406,carolina beach,34.0352,-77.8936,22.03,81,100,3.72,US,1711537496
407,tongliao,43.6125,122.2653,6.5,29,63,9.94,CN,1711575584
408,williamston,35.8546,-77.0555,11.94,66,92,2.95,US,1711537257
409,richfield,44.8833,-93.283,-2.08,67,0,6.17,US,1711540924
410,'alaqahdari dishu,30.4374,63.313,24.95,25,100,0.98,AF,1711503705
411,palikir - national government center,6.9248,158.1611,26.41,83,75,1.54,FM,1711567652
412,sorong,-0.8833,131.25,26.94,85,92,4.07,ID,1711574209
413,elamanchili,17.55,82.8667,27.12,75,21,1.77,IN,1711499213
414,colares,38.7992,-9.4469,15.74,91,75,15.2,PT,1711520983
415,skanor med falsterbo,55.4,12.85,9.56,82,95,6.85,SE,1711515114
416,katabu,-4.9333,122.5167,24.65,94,99,1.33,ID,1711576355
417,acapulco de juarez,16.8634,-99.8901,24.9,78,0,2.57,MX,1711543060
418,jinka,5.65,36.65,20.65,70,83,1.22,ET,1711510450
419,tostado,-29.232,-61.7692,31.1,40,33,3.09,AR,1711534483
420,mount pleasant,32.7941,-79.8626,23.08,94,100,3.6,US,1711537993
421,rengo,-34.4167,-70.8667,29.58,30,26,3.21,CL,1711536740
422,zhangatas,43.5667,69.75,13.88,81,0,3.98,KZ,1711501882
423,hacienda huancane,-15.8222,-70.8856,7.99,61,84,1.67,PE,1711536504
424,portland,45.5234,-122.6762,10.88,92,100,4.47,US,1711547950
425,malazgirt,39.1427,42.5401,0.0,67,42,1.17,TR,1711508512
426,brisas de zicatela,15.8369,-97.0419,27.9,54,17,3.14,MX,1711542391
427,palmer,42.1584,-72.3287,15.73,61,75,0.89,US,1711535976
428,kaoma,-14.7833,24.8,26.26,43,100,2.01,ZM,1711513526
429,filey,54.21,-0.2892,7.82,78,64,1.79,GB,1711518314
430,hell-ville,-13.4,48.2667,29.02,77,100,10.58,MG,1711507878
431,mont-laurier,46.5501,-75.4993,10.79,90,100,4.06,CA,1711536612
432,katsuura,35.1333,140.3,10.29,66,90,3.45,JP,1711571473
433,queenstown,-31.8976,26.8753,16.47,95,100,1.68,ZA,1711513235
434,camacupa,-12.0167,17.4833,18.94,90,63,1.23,AO,1711515251
435,butembo,0.15,29.2833,16.56,96,87,1.08,CD,1711512282
436,cidade velha,14.9167,-23.6167,24.26,60,20,9.26,CV,1711524791
437,belaya glina,46.07,40.86,8.69,67,40,5.75,RU,1711508738
438,rong kwang,18.339,100.3174,30.25,50,100,0.89,TH,1711581366
439,kargasok,59.0556,80.8572,1.09,95,100,1.79,RU,1711584867
440,greenland,43.0362,-70.8328,12.49,78,75,0.0,US,1711535594
441,cahors,44.4167,1.3333,9.44,73,98,4.7,FR,1711518259
442,arrifes,37.7667,-25.7,14.14,72,75,14.92,PT,1711524903
443,formosa do rio preto,-11.0483,-45.1931,32.75,43,53,2.92,BR,1711530282
444,solleftea,63.1667,17.2667,0.92,99,100,2.2,SE,1711513615
445,tofol,5.3248,163.0078,27.68,81,79,7.28,FM,1711566510
446,yuanping,38.7153,112.7575,6.52,21,34,4.5,CN,1711577994
447,lebanon,36.2081,-86.2911,15.15,61,0,2.57,US,1711539464
448,olinda,-8.0089,-34.8553,27.85,89,75,0.51,BR,1711527766
449,amurzet,47.6967,131.0981,0.39,90,100,4.33,RU,1711573340
450,vilyuysk,63.7553,121.6247,-19.63,99,100,1.6,RU,1711574775
451,mo i rana,66.3128,14.1428,0.26,74,75,1.54,NO,1711514105
452,cartagena,10.3997,-75.5144,31.79,58,20,4.12,CO,1711537300
453,pineville,31.3224,-92.4343,17.91,54,0,4.63,US,1711541036
454,martapura,-3.4167,114.85,28.05,94,75,1.54,ID,1711578176
455,lijiang,26.8688,100.2207,4.66,84,0,2.32,CN,1711581248
456,sadovoye,47.7764,44.5089,7.74,62,16,8.18,RU,1711507812
457,dois vizinhos,-25.7336,-53.0572,31.06,36,0,0.53,BR,1711532346
458,st. john's,47.5649,-52.7093,3.97,56,86,0.89,CA,1711531118
459,mossel bay,-34.1831,22.146,18.96,81,98,7.11,ZA,1711514402
460,mezhdurechenskiy,59.6,65.9333,-0.31,98,100,5.89,RU,1711502188
461,bryne,58.7354,5.6477,8.81,87,100,7.2,NO,1711516675
462,nabire,-3.3667,135.4833,24.28,92,100,1.43,ID,1711573224
463,naze,28.3667,129.4833,16.61,64,100,4.89,JP,1711574203
464,kismayo,-0.3582,42.5454,28.52,71,94,6.73,SO,1711509105
465,pandan,14.0453,124.1694,27.34,85,85,5.72,PH,1711575709
466,hinton,53.4001,-117.5857,4.69,71,34,1.16,CA,1711546451
467,swakopmund,-22.6833,14.5333,16.1,82,34,2.24,,1711516082
468,esil,51.9556,66.4042,4.09,87,97,4.87,KZ,1711502424
469,gaigeturi,33.4644,126.3183,12.91,71,100,3.79,KR,1711574862
470,lorengau,-2.0226,147.2712,27.35,82,99,1.92,PG,1711570379
471,khandyga,62.6667,135.6,-12.3,99,100,0.33,RU,1711571514
472,natal,-5.795,-35.2094,30.36,70,75,3.6,BR,1711527826
473,ocean shores,46.9737,-124.1563,11.32,91,100,6.69,US,1711548260
474,chibougamau,49.9168,-74.3659,5.79,87,100,9.77,CA,1711536229
475,manay,7.215,126.5397,25.82,81,84,2.75,PH,1711575235
476,midvagur,62.0511,-7.1939,3.46,70,75,7.72,FO,1711519549
477,antsiranana,-12.2787,49.2917,25.0,92,100,6.76,MG,1711507620
478,sorel-tracy,46.0334,-73.1159,12.11,85,100,1.99,CA,1711536056
479,hasaki,35.7333,140.8333,5.22,53,75,2.63,JP,1711571332
480,samana,19.2056,-69.3369,31.12,66,20,3.09,DO,1711535697
481,itaituba,-4.2761,-55.9836,33.66,53,43,0.8,BR,1711532793
482,tuzamapan,19.4,-96.85,29.31,36,0,3.57,MX,1711542294
483,sao felix do xingu,-6.6447,-51.995,32.22,55,61,1.64,BR,1711531864
484,cockburn town,21.4612,-71.1419,23.12,62,0,2.7,TC,1711536097
485,khark,29.2614,50.3306,20.61,63,1,4.93,IR,1711506839
486,wajir,1.7471,40.0573,34.05,35,100,2.66,KE,1711509678
487,kolonia town,6.964,158.206,27.0,83,75,1.54,FM,1711567641
488,terrace,54.5163,-128.6035,7.9,65,75,8.75,CA,1711549042
489,malpica,43.3228,-8.8105,8.52,74,97,12.59,ES,1711520720
490,gillette,44.2911,-105.5022,7.24,43,40,7.2,US,1711543870
491,fayroz koh,34.5195,65.2509,5.58,88,57,2.3,AF,1711503165
492,axim,4.8699,-2.2405,29.2,78,100,3.68,GH,1711519790
493,kihangara,-2.5833,33.35,22.62,80,72,1.13,TZ,1711511337
494,uruguaiana,-29.7547,-57.0883,27.52,45,0,2.91,BR,1711533366
495,kristiansund,63.1115,7.732,7.03,61,0,4.12,NO,1711515901
496,madera,37.1666,-119.8343,20.08,62,98,1.99,US,1711547485
497,shingu,33.7333,135.9833,8.91,72,97,1.57,JP,1711572538
498,dasnapur,19.654,78.5121,34.54,21,74,3.12,IN,1711500229
499,freetown,8.484,-13.2299,28.84,65,3,6.17,SL,1711522382
500,waddan,29.1614,16.139,31.09,11,59,5.89,LY,1711515040
501,sao lourenco do sul,-31.3653,-51.9783,23.02,69,93,3.65,BR,1711532161
502,mol,51.192,5.1145,11.66,69,100,3.49,BE,1711517138
503,antalaha,-14.9003,50.2788,24.54,96,100,4.07,MG,1711507412
504,pratt,37.6439,-98.7376,8.75,31,0,2.57,US,1711542416
505,la sarre,48.8002,-79.1996,3.66,81,96,6.63,CA,1711537426
506,hirara,24.8,125.2833,21.26,78,42,5.61,JP,1711575274
507,ikryanoye,46.0932,47.7308,12.77,59,100,9.29,RU,1711507090
508,gokwe,-18.2048,28.9349,26.26,34,55,2.2,ZW,1711512573
509,embu,-23.6489,-46.8522,21.17,94,100,2.78,BR,1711530830
510,salima,-13.7804,34.4587,22.72,91,100,1.46,MW,1711511197
511,egersund,58.4513,5.9997,7.83,80,100,10.84,NO,1711516606
512,plouzane,48.3833,-4.6167,5.03,87,100,1.54,FR,1711519566
513,arraial do cabo,-22.9661,-42.0278,25.92,73,75,2.06,BR,1711529664
514,afaahiti,-17.75,-149.2833,27.93,83,97,8.75,PF,1711555345
515,thunder bay,48.4001,-89.3168,-5.65,76,99,5.11,CA,1711539864
516,ishigaki,24.3448,124.1572,22.13,83,100,6.44,JP,1711575552
517,san antonio,29.4241,-98.4936,20.5,68,100,2.57,US,1711542524
518,arbroath,56.5632,-2.5874,7.03,90,89,6.35,GB,1711518758
519,pacific grove,36.6177,-121.9166,16.61,74,0,3.6,US,1711547996
520,derzhavinsk,51.1,66.3167,3.05,86,81,4.78,KZ,1711502476
521,lower sackville,44.7733,-63.6885,7.45,99,100,5.14,CA,1711533834
522,bethanie,-26.4833,17.15,24.32,46,34,2.54,,1711515500
523,kerewan,13.4898,-16.0888,35.56,19,33,3.57,GM,1711523004
524,matamey,13.4231,8.4749,31.93,7,91,2.85,NE,1711517113
525,arawa,-6.2132,155.5367,26.8,77,80,2.4,PG,1711568447
526,chichiriviche,10.9333,-68.2772,29.09,61,7,4.53,VE,1711535557
527,inirida,3.8653,-67.9239,40.5,25,64,1.47,CO,1711535561
528,cole harbour,44.6724,-63.4751,7.66,98,100,5.14,CA,1711533785
529,peniche,39.3558,-9.3811,15.72,83,64,12.28,PT,1711520955
530,caaguazu,-25.45,-56.0167,36.38,25,5,1.79,PY,1711533053
531,jayapura,-2.5333,140.7,25.66,90,100,1.39,ID,1711571962
532,orumiyeh,37.5527,45.0761,4.49,64,34,3.51,IR,1711507940
533,aitape,-3.1374,142.3475,25.84,89,100,2.03,PG,1711571574
534,gofitskoye,45.0792,43.0464,7.72,74,67,6.85,RU,1711508242
535,laojunmiao,39.8333,97.7333,6.48,26,100,2.66,CN,1711581568
536,sitia,35.2,26.0986,19.99,52,0,5.99,GR,1711512539
537,labrador city,52.9463,-66.9114,1.77,71,100,7.2,CA,1711534328
538,lakes,61.6071,-149.3086,2.56,94,100,1.54,US,1711553610
539,san luis de la loma,17.2706,-100.8939,28.05,48,0,3.35,MX,1711543295
540,kabwe,-14.4469,28.4464,20.13,78,94,2.4,ZM,1711512647
541,amga,60.8953,131.9608,-10.55,98,100,1.52,RU,1711572511
542,girard,41.154,-80.7015,14.57,60,75,5.66,US,1711538009
543,tome,-36.6167,-72.95,18.81,68,24,4.11,CL,1711537273
544,mildura,-34.2,142.15,14.48,70,23,5.59,AU,1711572031
545,barclayville,4.6797,-8.2339,29.2,73,89,2.93,LR,1711521230
546,kawambwa,-9.7915,29.0791,18.99,94,85,1.35,ZM,1711512443
547,east ballina,-28.8667,153.5833,19.89,76,45,2.34,AU,1711569207
548,shwebo,22.5667,95.7,27.84,32,100,2.9,MM,1711582406
549,laayoune,27.1622,-13.2032,20.19,40,1,7.72,EH,1711522110
550,berekum,7.4534,-2.584,33.14,43,90,0.8,GH,1711519841
551,viana do castelo,41.6932,-8.8329,9.82,74,100,11.7,PT,1711520767
552,guiuan,11.0333,125.7247,27.42,83,95,5.16,PH,1711575378
